index,name,address,description,latitude,longitude,level
0,경천대,경상북도 상주시 사벌면 삼덕리 산15-26,"낙동강변 경관이 아름답기로 알려져 있으며 상주 최고의 관광지로도 꼽힌다.",36.4582774,128.2437677,4
6,상주박물관,경상북도 상주시 사벌면 경천로 684,"지역문화의 특징과 우수성을 한 눈에 볼 수 있게 하였습니다. 그리고 야외에는 석조유물을 비롯하여 아름다운 정자가 있는 생태연못과 전통의례관, 태양에너지전시홍보관 등이 있어 다양한 볼거리와 놀이공간을 제공하고 있습니다.",36.458698,128.240808,4
7,장각폭포,경상북도 상주시 화북면 상오리,"속리산의 최고봉인 천황봉에서 시작한 시냇물이 6m 높이의 절벽을 타고 떨어지는 폭포이다.",36.591435,127.855936,4
8,용흥사,경상북도 상주시 지천동 722,"대웅전에는 석가모니불과 산신상·영산후불탱화를 비롯하여 칠성·독성·산신탱화가 모셔져 있으며, 제석천룡도와 동종·소종 등도 놓여 있다. 유물로는 보물로 지정된 용흥사범종이 잘 알려져 있다. ",35.341193000000004,126.88909893677248,4
9,청계사,경상북도 상주시 화서면 하송리 310-2,"청계사는 산을 찾는 사람들의 휴식처이다. 맑은 계곡을 끼고 터를 잡아 수려한 산세와 풍광으로 많은 관광객들이 찾아들고 있다.",35.8095698,128.6800591,4
10,경천섬 공원,경상북도 상주시 중동면 오상리 968-1,"매년 봄이면 유채꽃이 만개하여 봄의 시작을 알리고, 가을에는 코스모스와 메밀꽃이 장관을 이루어 많은 관광객의 발길이 이어지는 관광명소이다. ",36.43911285,128.2590653758948,4
11,개운저수지,경상북도 상주시 중동면 오상리 968-1,"수면적 약 6만평의 계곡형 저수지로 물이 맑아 바닥이 훤히 보일 정도로 깨끗하다. 잘 알려지지 않은 탓으로 겨울에는 아름아름 빙어낚시를 즐기는 조사가 많이 찾아 든다.",37.65072445,127.95228624124324,4
13,임란북천전적지,경상북도 상주시 만산동 699,"임진왜란 때 조선 중앙군과 왜병의 선봉 주력 부대가 최초로 싸운 장소로 900여 명이 순국한 호국성지이다.",36.42546325,128.15031222015722,4
