index,name,address,description,latitude,longitude,level
0,경산시립박물관,경상북도 경산시 박물관로 46,"경산지역의 역사와 문화에 대한 종합적인 전시실로서 근대 경산사람들의 생활모습을 재현한 종합문화공간이다.",35.81397545,128.76305825708073,5
1,삼성산,경상북도 경산시 남산면 상대리 산78,"삼성산은 원효,설총,일연 3명의 성현이 있다고 하여 붙여진 이름이다.",37.4359147,126.9393711,5
4,러브로드,경상북도 경산시 갑제동,"영남대에 있는 벚꽃길이다. 이름에서 알 수 있듯 연인과 함께 걸으면 이루어진다는 속설이 있다.",35.828818,128.7604626,5
8,삼성역,경상북도 경산시 남천면 삼성역길,"현재 열차는 전부 정차하였지만 벚꽃 명소로 유명해졌다.",37.5088402,127.063143,5
10,경산공설시장,경상북도 경산시 경안로 KR 경안로31길19 경안로 31길19,"경산의 대표적인 전통시장으로 최근 야시장도 개장했다.",35.82191915,128.73607907519977,5
