index,name,address,description,latitude,longitude,level
0,벽골제,전라북도 김제시 부량면 신용리 119-1 KR,"우리나라에서 처음으로 쌓아 만든 최고의 고대 저수지이다.",35.7534306,126.85344928891794,3
1,모악산도립공원,전라북도 김제시 금산면 금산리 112,"전라북도 중앙부에 자리한 모악산을 중심으로 지정된 도립공원",35.724741,127.056712,3
2,망해사,전라북도 김제시 진봉면 심포리 1004,"전라북도 김제시 진봉면 진봉산에 있는 남북국시대 통일신라의 승려 통장이 창건한 사찰",35.8593628,126.7149497,3
4,금산사,전라북도 김제시 금산면 금산리 39,서기 599년에 지어진 3층 불교 사찰로 명상과 한국 문화에 관한 프로그램을 제공합니다.,35.723031,127.053659,3
9,성산공원,전라북도 김제시 향교길 89-16 (교동),"성산공원은 김제 도심에 있는 성산[41m]에 조성된 근린공원으로, 김제 시민을 위한 휴식 공간 및 관광명소로 사랑받고 있는 공원이다.",34.7744618,127.645924442185,3
