index,name,address,description,latitude,longitude,level
1,외도 보타니아,경상남도 거제시 일운면 외도길 17 외도해상농원,바위로 이루어진 작은 섬이 계단식으로 깔끔하게 손질된 식물원으로 탈바꿈한 곳으로 페리를 이용해 갈 수 있습니다.,34.7692662,128.7119207,4
2,바람의 언덕,경상남도 거제시 남부면,"산과 바다 풍경을 모두 볼 수 있고, 편의시설과 오래된 풍차가 있는 예스러운 해변 근처의 유명한 언덕입니다.",34.74459708355542,128.66318582344292,4
3,매미성,경상남도 거제시 장목면 복항길,"매미성은 경상남도 거제시 장목면 대금리 해변가에 있는 장벽이자 관광지이다.",34.9682217,128.7050767,4
4,거제자연예술랜드,경상남도 거제시 동부면 구천리,"난상설전시장(유리온실)을 비롯 풍란.석부작.목부작 등 500여 점의 분재, 각종 희귀 수석 등이 전시되고 있는 한국 최대의 난.수석.분재 전시장이다.",34.8157514,128.6236183,4
5,국사봉,경상남도 거제시 수양동 산51-3,"이 산은 임진왜란 때 왜적의 동태를 살피던 망산 역할을 했으며 수월계곡의 맑은 물과 봄에는 철쭉꽃으로 장관을 이루며, 산두릅, 산딸기, 산으름, 표고버섯 등 희귀한 산채가 많다.",37.4928193,126.9398577,4
7,거제씨월드,경상남도 거제시 일운면 지세포해안로 15,"대한민국 최대의 돌고래 체험시설로, 체험·교육·휴양·치유 등을 통한 인간과 돌고래간의 상호작용적 체험활동 프로그램을 진행하는 곳입니다.",34.8359334,128.7015988290006,4
