index,name,address,description,latitude,longitude,level
0,얼음골,경상남도 밀양시 산내면 남명리 산95-2,"대한민국의 천연기념물이며 여름에 얼음이 가장 많이 생기는 현상을 가지고있다.",35.6948506,126.6418022,4
1,밀양댐,경상남도 밀양시 단장면 고례리 산388-15,"아름다운 영남알프스의 풍경과 어우러져 친환경적으로 건설한 다목적댐으로 물홍보관, 생태공원 및 댐전망대등을 갖추고 있어 쾌적한 전망과 편안한 휴식 공간을 제공하고 있습니다.",35.4833395,128.93188167784857,4
6,종남산,경상남도 밀양시 상남면 남산리 산181-1,"봄이면 만발하는 어른 키가 훌쩍 넘는 철쭉은 그야말로 장관을 이룬다.",35.448468,128.7220842,4
7,영남루,경상남도 밀양시 중앙로 324,"우리나라 3대 누각 중 하나로 손꼽히고 있으며, 보물 제 147호로 지정되어 있다.",37.2061453,127.5434439,4
8,삼문송림,경상남도 밀양시 삼문동 4-3,"송림과 어우러진 구절초 단지는 연인과 가족들이 산책을 즐길 수 있고 사진작가들의 촬영 명소로도 유명하다.",35.48671,128.75805554070536,4
