index,name,address,description,latitude,longitude,level
0,양산타워,경상남도 양산시 동면 강변로 264,"서울특별시의 N서울타워와 대구광역시의 대구타워에 이어 대한민국에서 세 번째로 높은 160m의 타워이다.",35.326093,129.02390642142794,5
1,오봉산,경상남도 양산시 물금읍 가촌리,"한반도 처럼 생긴 낙동강의 조망을 볼 수 있는 산이다.",37.412204,126.7312079,5
3,배내골,경상남도 양산시 원동면 대리,"전국에 몇 안되는 청정지역이며, 많은 명소가 있다.",35.5274178,129.0071333,5
4,임경대,경상남도 양산시 원동면 화제리 산72-4,"신라의 고운 최치원이 즐겨 놀던 정자로 경남 양산 원동면에 위치하고 있는 통일신라시대의 정자이다. ",35.3224471,128.97767179125137,5
6,양산워터파크,경상남도 양산시 물금읍 신주2길 25,"아이들이 좋아하는 자연학습과 양산 시민들이쉴수있는 휴식을 동시에 지공하는 향산 워터파크는 양산의 인기휴식처이다.야외무대,운동시설,자연조경을 갖춘 근린공원등 시민들의 여유로운 휴식을 위한 편의시설이 모두 준비되어있다.",35.3382432,129.0217403,5
7,양산시립박물관,경상남도 양산시 북정로 78,"유물을 보는 것뿐만 아니라  여러 모형, 디오라마, 각종 영상물들을 제작하여 선보임으로써 과거와 현재, 미래를 넘나드는 현장감을 느낄 수 있도록 꾸며졌다.",35.3583503,129.04906136030337,5
12,통도사,경상남도 양산시 하북면 용연리,"세계 유네스코 문화유산으로 선정된 사찰이며 문화재 약 3만여 점을 소장한 한국 불교 문화재의 보고다.",35.4878601,129.0642900643632,5
