index,name,address,description,latitude,longitude,level
3,우포늪생태관,경상남도 창녕군 유어면 우포늪길 220,"우포늪생태관은 우포늪의 조류와 어류를 포함한 동물과 식물 등을 연구하며, 우포늪의 다양한 생물을 대중에게 전시하는 장소입니다.",35.54462895,128.41896071889744,3
5,관룡사,경상남도 창녕군 창녕읍 옥천리 292,"신라시대 8대 사찰 중의 하나로서 많은 문화재와 경치 좋은 사찰로 널리 알려졌지만 절의 역사에 관한 뚜렷한 기록은 없다.",35.561212,128.507838,3
10,만옥정공원,경상남도 창녕군 창녕읍 교상리 28-22,"봄에는 벚꽃이 유명하여 읍민들의 쉼터로 널리 이용되고 있다.",35.54065095,128.50215498540382,3
11,화왕산군립공원,경상남도 창녕군 창녕읍 송현리,"화왕산(756.6m)과 관룡산(일명 구룡산, 739.7m)을 잇는 공원으로 많은 문화재와 수려한 자연경관을 자랑, 많은 관광객(등산객)이 찾는다. ",35.542276,128.519454,3
12,창녕신라진흥왕척경비,경상남도 창녕군 창녕읍 송현리,"신라 제24대 임금 진흥왕이 재위 22년(561)에 가야 각국을 물리치고 새로 정복한 창녕군 지역을 직접 순시한 뒤 설치한 비석이다.",35.5407327,128.5026832,3
13,창녕박물관,경상남도 창녕군 창녕읍 창밀로 34,"선사시대부터 가야시대까지 창녕 지역에서 출토된 고고유물을 중심으로 전시하고 있다. ",35.545474,128.505147,3
