index,name,address,description,latitude,longitude,level
0,최참판댁,경상남도 하동군 악양면 평사리길 66-7,"대하소설 『토지』에 나오는 최참판댁을 재현해놓은 공간이다.",35.1555779,127.68807626398078,3
1,화개장터,경상남도 하동군 화개면 쌍계로 15,"섬진강을 사이에 두고 전라남도 구례군과 마주보고 있는 지역적 특성 덕분에 경상도와 전라도의 교류지점이 되었던 곳이다. 노래로도 유명하다.",35.18837935,127.62427994155584,3
3,섬호정,경상남도 하동군 하동읍 읍내리 1528,"하동읍 갈마산에 있는 아름다운 정자이다.",35.0694756,127.7427713,3
5,동정호,경상남도 하동군 악양면 평사리 305-2,"천연발생 늪지대로 청둥오리,붕어 등 야생조수, 물고기, 식물이 공존하는 자연 생태계이다.",39.1037157,127.6978159,3
6,쌍계사,경상남도 하동군 화개면 쌍계사길 59,울창한 산속에 자리한 수백 년 된 불교 사원으로 녹차 밭과 벚꽃길을 감상할 수 있습니다.,35.23257275,127.6500885762384,3
12,하동 삼성궁,경상남도 하동군 청암면 삼성궁길 2,"옛날부터 전해 내려오던 선도를 이어받은 한풀선사가 수자(修子)들과 함께 수련하며 돌을 쌓아올린 1,500여 개 돌탑이 주변의 숲과 어울려 이국적인 정취를 풍겨낸다. ",35.2407424,127.7015409,3
