index,name,address,description,latitude,longitude,level
1,진천종박물관,충청북도 진천군 진천읍 백곡로 1504-12,"진천종박물관은 한국 종의 연구, 수집, 전시, 보존은 물론 기획전시, 교육 및 다양한 활동 등을 통해 세계적으로 그 가치를 인정받은 한국 종의 예술적 가치와 우수성을 알리고자 2005년 9월 개관하였다. 또한 국내에서 가장 앞선 것으로 조사된 진천 석장리 고대 철생산 유적지가 있는 진천에 건립되어 그 의미가 깊다.",36.87089,127.413858,4
3,보탑사,충청북도 진천군 진천읍 연곡리 483,충북 진천군 진천읍의 보탑사는 고려시대 절터로 추정되는 곳에 대목수 신영훈 장인의 감독하에 창건된 절이다. 보탑사가 주목받는 이유는 신라시대 황룡사 구층목탑을 모델로 한 삼층목탑 양식이기 때문이다.,36.8396484,127.34095935494602,4
6,만뢰산자연생태공원,충청북도 진천군 진천읍 김유신길 340-38,"만뢰산자연생태공원은 생태연못, 자생수목원, 밀원식물원, 습생초지원, 열매나무원, 야생초화/허브원, 생태교육장, 곤충관찰원, 임간학습장 등을 설치하여 도심형 공원과는 차별회된 체험형 자연생태공원이다.",36.84968485,127.3660558115242,4
8,영수사,충청북도 진천군 초평면 영구리 542,영수사는 비지정문화재로 1977년 단국대학 학술조사 연구반에 의해 문화재 가치를 인정받은 사찰이며 목조(나무)로 되어있다. 고려 태조 원년 (918년)에 증통국사가 창건하였으며 근세 조선 순조 30년 (1831년)에 지방민의 후원으로 주증 요익이란 분이 다시 짓고 고종 5년에 또다시 이 한이 고쳤다.,36.8351933,127.5514746,4
9,진천역사테마공원,충청북도 진천군 진천읍 장관리 710,충북 진천에 있는 진천역사테마공원은 주민들의 체력증진과 휴식공간을 제공하기 위한 목적으로 조성된 곳으로 주변에는 소나무와 느티나무가 있어 시원하고 앞에는 백곡저수지가 있어 상쾌한 기분을 느낄 수 있다.,36.869275,127.4122586,4
11,화랑공원,충청북도 진천군 진천읍 벽암리 508,화랑공원은 근린 생활시설로서 군민의 휴식과 운동 및 편의시설을 동시에 즐길 수 있는 다목적 공원입니다.,37.397286300000005,127.10510194704932,4
