index,name,address,description,latitude,longitude,level
0,각원사,충청남도 천안시 동남구 각원사길 245,"태조산은 천안의 진산으로 유량천, 산방천의 분수령을 이루고 있고 정상에 오르면 천안을 한눈에 내려다볼 수 있다. 고려 태조 왕건이 이 산을 중심으로해서 군사양병을 했다는 설에 인연하여 태조산 이라는 이름이 지어졌다고 전해온다.",36.83453545,127.19649001449636,5
3,천호지,충청남도 천안시 동남구 신안동 470,"천호지는 1957년 한국 농어촌 공사가 천안 지역의 농업용수를 공급하기 위해 저수지로 만들었으나 현재는 천안시민들의 휴식 공간인 호수 공원이 되어 웰빙 마라톤 코스, 분수, 현수교 등이 설치되어 있다.",36.8352602,127.1732727,5
4,아라리오갤러리 천안,충청남도 천안시 동남구 만남로 43,"천안에 소재한 ARARIO GALLERY는 컨템퍼러리 아트를 중심으로, 다양한 미술작업들의 전시를 위하여 마련된 공간이다. 특히, 기존의 갤러리들과는 달리, 영화관, 백화점, 터미널 등과 함께 누구나 쉽게 접근할 수 있는 도심공간에 위치함으로써, 대중과 함께 문화가치를 공유하고자 하는 적극적인 의지를 가지고 있다.",36.8192897,127.15788643864072,5
5,독립기념관,충청남도 천안시 동남구 목천읍 독립기념관로 1,일본 식민지 시대의 독립 운동과 한국 역사를 알 수 있는 박물관이며 4D 극장이 있습니다.,36.7788370,127.230408,5
6,천안박물관,충청남도 천안시 동남구 삼룡동 천안대로 429-13,"천안박물관은 천안에서 살았던, 혹은 천안에서 살고 있는 사람들의 크고 작은 역사를 한자리에서 볼 수 있는 곳이다. 고려 시대와 조선 시대 향촌의 생활상을 모아놓았으며, 국보로 지정된 봉선홍경사 갈기비 모형과 자세한 내용을 살펴볼 수 있다.",36.7866109,127.1633617695214,5
8,천안 영남루,충청남도 천안시 동남구 충절로 410,"이 누각은 조선 선조 35년(1602)에 창건한 화축관의 문루(문간재)로 추정된다. 건물은 정면 3칸 측면 2칸의 팔작기와집에 12주의 돌기둥으로 가구되었는데, 당시 임금이 온천에 거동할 때 행궁으로 사용했던 건물이다.",36.7838651,127.1671512,5
