index,name,address,description,latitude,longitude,level
1,칠갑산 장승공원,충청남도 청양군 대치면 장곡길 119-17,"청양군은 청정지역이며, 현재는 충남의 알프스라는 서해안고속도로의 등장과 공주와 보령을 잇는 국도 등이 잘 정비되어 오염되지 않은 관광지로 거듭나고 있다. ''칠갑산''이라는 대중가요로 인해 널리 알려진 칠갑산을 품은 청양은 장승에 대한 각종 전설과 유래가 많은 곳으로 수백년 전부터 장승제를 올려오는 등 이미 한국 최고의 장승문화 보존지역으로 일컬어 오고 있다.",36.40996365,126.85109416085989,1
6,고운식물원,충청남도 청양군 청양읍 군량리 389-2,"고운식물원은 1990년 부지조성을 시작으로 1997년 식물원 조성인가 후 2003년 4월 28일 개원까지 다양한 식물구입 및 식재작업을 통해 만들어졌다.",36.433552,126.760641,1
8,도림계곡,충청남도 청양군 장평면 적곡리,"칠갑산 산자락 마을인 도림리에 있는 계곡은 숲이 울창하게 뒤덮여 터널을 이루어 햇빛을 보기 어려울 정도다. 계곡은 좁고 긴데, 물이 맑고 시원하다. 또한 팔만대장경이 보관되어 있었다는 도림사지가 있으며 여름철에는 피서객이 많이 모여든다.",36.387046,126.896849,1
9,모덕사,충청남도 청양군 목면 송암리 171-1,조선 후기 애국지사인 면암 최익현(1833～1906)선생의 영정을 모신 사우로 1914년에 건립되었다. 현판의 글자는 고종황제가 내린 글 가운데 면암의 덕을 흠모한다(艱虞孔棘慕卿宿德)라는 구절에서 모(慕)자와 덕(德)자를 취한 것이다.,36.445827300000005,127.00804762792748,1
12,칠갑전망대,충청남도 청양군 운곡면 신대리,천장호가 내려다보이는 곳인 칠갑산 전망대는 청양의 아름다움을 가까이서 만날 수 있는 곳입니다. 목재문화체험장과 향토상품판매장도 같은 공간에 있는 칠갑전망대는 천장호와 칠갑산의 풍광을 한꺼번에 감상할 수 있는 곳입니다.,36.43898025,126.8483208189328,1
