index,name,address,description,latitude,longitude,level
1,메타프로방스,전라남도 담양군 담양읍 학동리 586-1,"프랑스풍의 관광 마을로 선명한 색상의 건물과 설치 미술, 상점, 레스토랑이 있습니다.",35.3219344,127.0019241,4
2,죽녹원,전라남도 담양군 담양읍 죽녹원로 119,대규모의 식물이 있는 크고 고요한 대나무 정원으로 조명 아래에서 야간 산책을 하며 인근 시설을 이용할 수 있습니다.,35.32852595,126.98555298011182,4
6,소쇄원 (瀟灑園),전라남도 담양군 남면 지곡리 123,자연과 조화롭게 조성한 유서 깊은 전통 한국식 정원으로 인공 폭포가 있습니다.,35.183628299999995,127.0121774718285,4
11,명옥헌,전라남도 담양군 대덕면 금산리 332-1,"주위의 산수 경관이 연못에 비치는 모습을 명옥헌에서 내려다보며 경관을 즐길 수 있도록 조성하여 자연에 순응한 조상들의 지혜를 잘 반영한 전통원림으로 자연경관이 뛰어난 경승지이다.",35.21932004999999,126.9964467,4
12,면앙정,전라남도 담양군 봉산면 제월리 402,"이황(李滉)을 비롯하여 강호제현들과 학문을 논하며 후학을 길러내던 곳으로 유명하다. ",35.260881,126.960236,4
