index,name,address,description,latitude,longitude,level
0,하조대,강원도 양양군 현북면 하광정리 산3,"푸른 송림사이 밀려오는 에머럴드빛 바닷물과 새하얀 모래사장을 볼 수 있습니다.",38.0218906,128.7200421,4
1,낙산사,강원도 양양군 강현면 낙산사로 100,석조 동굴에 처음 건축된 이후 여러 번 재건된 역사적인 불교 사원 단지입니다.,38.1246283,128.6283335,4
3,죽도해변,강원도 양양군 현남면 인구리,"수심이 얕고 경사가 완만해 가족 피서지로 좋습니다.",37.9727282,128.7606168,4
5,휴휴암,강원도 양양군 현남면 광진리 1,"어리석은 마음, 시기와 질투, 팔만사천의 번뇌를 내려 놓는 곳입니다.",37.9610367,128.768413,4
6,낙산도립공원,강원도 양양군 강현면 주청리,"낙산사와 의상대가 있는 공원입니다.",38.113537,128.637169,4
9,양양,강원도 양양군 현북면 법수치길 198,"연어축제, 송이축제 등이 열리는 양양입니다.",38.0751,128.6191,4
11,법수치계곡,강원도 양양군 손양면 학포길 33,"최상류 계곡으로 여름철 피서지로 좋습니다.",37.904146,128.614464,4
