index,name,address,description,latitude,longitude,level
0,베어트리파크,"세종, 연기군 특별자치시, 전동면 신송로 217",다양한 꽃과 분재 사이에 검은 곰 울타리와 잉어 연못이 있는 식물 공원입니다.,36.67101105,127.20950078209871,5
1,세종호수공원,세종 연기군 특별자치시 다솜로 216,"호수 주변에 조성된 산책로와 자전거도로는 세종특별자치시민들이 여유로운 휴식을 즐길 수 있는 공간입니다.",36.50216985,127.27638144781152,5
2,세종전통시장,충청남도 종 조치원읍 조치원8길 42,"세종전통시장은 약 9,200평 규모로 점포 수는 320여개가 있고 700여명의 상인이 종사하고 있다.",36.60029955,127.30046704988284,5
5,봉산동 향나무,세종특별자치시 조치원읍 봉산리 128,"오랜 세월동안 조상들의 관심과 보살핌 가운데 살아온 문화적·생물학적 자료로서의 가치가 높습니다.",36.6046181,127.2775269,5
7,영평사,충청남도 공주시 장기면 영평사길 124 KR 세종특별자치시 장군면,"6동의 문화재급 전통건물과 3동의 토굴을 갖춘 대한민국 전통사찰의 수행도량입니다.",36.4730238,127.22739665,5
9,비암사,충청남도 연기군 전의면 다방리 4,"810년 된 느티나무가 있는 비암사입니다.",36.6114272,127.19202071132682,5
10,국립세종수목원,세종 연기군 특별자치시 중앙수목원로 212-24,"국내 최초의 도심형 수목원입니다.",36.49480835,127.28471657775589,5
13,황룡사,세종특별자치시 연동면 황우재길 22-17,"재상 황희의 후손들이 나라의 태평성대와 가문의 번창을 기원하기 위해 지어진 사찰입니다.",37.580639,126.6641075,5
