index,name,address,description,latitude,longitude,level
0,시흥갯골생태공원,경기도 시흥시 연성동 동서로 287,"강변과 꽃밭, 오래된 염전, 나선형 전망대가 있는 습지 보호구역입니다.",37.39214615,126.77984520792369,5
8,관곡지,경기도 시흥시 하중동 208,"인근 3만평에 이르는 대지에 연꽃 농장이 들어서면서, 연꽃을 보기 위해 많은 관광객들이 찾는 명소로 발전했다.",37.4023794,126.8042849,5
9,배곧생명공원,경기도 시흥시 배곧 2 로 25,"도란뜰이라는 가족 피크닉장이 마련되어 있어 가족 단위로 즐기기에 좋으며, 다양한 야생화를 감상할 수 있는 갈대랑길과 하늘마루 등이 조성되어 자연 속에서 산책할 수 있다.",37.37160675,126.72256416552472,5
12,용도수목원,경기도 시흥시 방산동 779-43,"양지산관련항목 보기 아래 있으며, 넓은 잔디밭과 300여 종의 야생화가 피어 다양한 식물을 볼 수 있는 자연 생태 체험 위주 수목원이다",37.4173365,126.8275732,5
13,옥구공원,경기도 시흥시 정왕동 2138,"산 정상의 낙조대에서는 인천 앞바다와 시화방조제·대부도 등이 한눈에 들어오며, 낙조를 감상할 수 있다.",37.3560627,126.7122380530968,5
