index,name,address,description,latitude,longitude,level
0,광명동굴,경기도 광명시 학온동 가학로85번길 142,"엔터테인먼트 명소로 탈바꿈한 옛 광산 동굴로 조명 쇼, 수족관, 와이너리가 있습니다.",37.4268147,126.8655162,5
1,도덕산공원,경기도 광명시 광명동 317-80,"도심지 광명시의 북쪽지역 중심에 위치하여 접근이 용이하고 인공폭포, 벽천, 광장 등 쉼터를 조성하여 사람들이 즐겨찾고 있다.",37.46936575,126.85773420959086,5
2,충현박물관,경기도 광명시 오리로347번길 5-6,"체험프로그램을 운영하여 아동 및 청소년에게 전통 문화에 대한 이해와 과제물 수행을 통한 성취감을 주는 등 다양한 문화 체험을 제공하고 있다.",37.4336934,126.878416,5
5,도덕산,경기도 광명시 광명7동,"산봉우리 에서 모여서 도와 덕에 대한 의견 교환을 자주 가졌다고 해서 도덕산 이라 부른다.",37.4653398,126.8571744,5
9,현충근린공원,경기도 광명시 철산동 153,"현충탑이 세워진 곳으로 현충일이면 추모행사를 거행하기도 하는곳이다.",35.2290046,129.00778786286136,5
11,뱀쇠다리,경기도 광명시 철산1동,"안양천을 이용하는 많은 시민들이 구로1동과 광명을 연결하는 물위 산책코스로 이용되고 있다.",37.4880074,126.8710106,5
