index,name,address,description,latitude,longitude,level
0,수리사,경기도 군포시 속달동 329,"의병장인 곽재우(1552~1617)장군이 이 절을재건하고, 이 곳에서 말년을 수도생활로 보냈다고 전해온다.",37.3540156,126.89680866750491,4
1,반월호수공원,경기도 군포시 둔대동 458-2,"빨간 풍차가 예쁘며,규모는 작지만 깔끔하고 예쁜 공원이다.",37.32402275,126.88931648099827,4
2,당정근린공원,경기도 군포시 당정동,"공원 중앙에 자연석을 이용한 폭포 조형물이 있고, 산책 및 조깅트랙을 통해 걷기운동 공간을 제공하고있다.",37.34389295,126.9470879535246,4
3,능안공원,경기도 군포시 산본동,"완만한 경사로에 조성된 산책로와 약수터,야외무대 등이 있어 도시공원의 면모를 잘 갖추고 있다.",37.48828425,127.14414609981586,4
9,철쭉공원,경기도 군포시 산본동 1153,"사계절 장미원과 장미터널, 봄이면 노란 개나리꽃 물결이 인상적이며 다양한 체육시설이 설치되어 있는 매력적인 공원이다.",37.3544734,126.9260405,4
12,누리천문대,경기도 군포시 산본동 산44-1,"대야도서관에서 운영하는 천문대로서, 천체학습과 관측을 할 수 있는 곳이다.",37.3302539,126.9156001,4
