index,name,address,description,latitude,longitude,level
3,양주관아지,경기도 양주시 양주1동 부흥로1399번길 15,"경기도 양주 지역에 설치되었던 행정구역으로, 일제강짐기까지 417년간 양주목을 다스리던 관청이 있던 곳이다.",37.78561345,127.0292861358792,5
4,나리공원,경기도 양주시 만송동 458,"가을이면 핑크뮬리로 뒤덮여 환상적인 풍경을 볼 수 있는 넓은 공원으로, 다양한 색상의 다른 꽃도 많습니다.",37.5042503,126.98738302136807,5
7,일영유원지,경기도 양주시 장흥면 유원지로 406-31,"공릉천을 따라 펼쳐져 있으며 맑은 계곡물과 함께 즐길 수 있는 자연속의 휴식공간이다.",37.6958025,126.9298852,5
9,옥정중앙공원,경기도 양주시 회천4동 438,"지역주민들의 만남, 휴게, 축제 등이 이루어질 수 있는 복합문화 휴게공간 및 옥정 싱정지구의 중심 공원으로 조성되었다.",37.82283135,127.09575559633416,5
10,회암사지,경기도 양주시 회암동 산14-1,"조선 전기까지 전국에서 가장 큰 절이었으며 여러 보물,문화재들이 남아있다.",37.841162,127.10289409231004,5
12,조명박물관,경기도 양주시 광적면 광적로 235-48,"인류의 신화, 역사, 문명을 창조한 빛과 조명의 세계를 살펴, 인간의 조명문화를 대중에게 널리 소개하기 위해 설립된 곳입니다.",37.8364877,126.9681439,5
