index,name,address,description,latitude,longitude,level
0,안양예술공원,경기도 안양시 만안구 예술공원로 131,예술품과 실외 조각을 잇는 산책로가 있는 넓은 숲과 개울 지역입니다.,37.41974555,126.92456570337043,5
5,병목안시민공원,경기도 안양시 만안구 안양9동 병목안로 215,"공원 옆 울창한 소나무 숲에 야영장도 있고 이어서 올라가면 수령 100년부터 300년가량의 고목들이 우거진 숲의 산림욕장도 있어 안양의 명소로 꼽히는 곳들이다.",37.3848527,126.90906086848696,5
6,분수대,경기도 안양시 동안구 평안동 895,"하늘로 승천하는 용의 모습을 한 두 기둥의 분수이다.",37.49632615,126.95742924623896,5
9,학운공원,경기도 안양시 동안구 비산동,"생태하천인 학의천과 연계된 공원으로 학의천변을 따라 1.4km의 산책로에 벚꽃길이 조성되어 있으며 공원 내부에도 산책로가 조성되어 산책과 사색을 즐기는 공간으로 많은 사람이 찾고 있습니다.",37.399962,126.951839125,5
13,삼덕공원,경기도 안양시 만안구 삼덕로 106,"놀이터부터 간단한 음식과 함께 소풍을 즐길 수 있는 피크닉광장, 시원한 물줄기를볼 수 있는 바닥분수, 체력단련장 등의 시설들이 있다.",37.39882365,126.91719169689696,5
